[
  {
    "do": "경상남도",
    "si": "진주시",
    "dong": "가좌동",
    "zibun": "2064-1",
    "db_name": "더퍼스트웰가시티",
    "show_name": "더퍼스트웰가시티",
    "lat": 35.151858,
    "lng": 128.116414
  },
  {
    "do": "경상남도",
    "si": "진주시",
    "dong": "강남동",
    "zibun": "181-1",
    "db_name": "진주 강남동 일동미라주",
    "show_name": "진주일동미라주",
    "lat": 35.183651,
    "lng": 128.087702
  },
  {
    "do": "경상남도",
    "si": "진주시",
    "dong": "칠암동",
    "zibun": "448",
    "db_name": "씨티펄",
    "show_name": "씨티펄",
    "lat": 35.1792477,
    "lng": 128.094312
  },
  {
    "do": "경상남도",
    "si": "진주시",
    "dong": "가좌동",
    "zibun": "2068-1",
    "db_name": "신진주역세권 줌테라스",
    "show_name": "신진주역세권 줌테라스",
    "lat": 35.154442,
    "lng": 128.118145
  },
  {
    "do": "경상남도",
    "si": "진주시",
    "dong": "신안동",
    "zibun": "883-4",
    "db_name": "더라움",
    "show_name": "더라움",
    "lat": 35.18186,
    "lng": 128.065074
  },
  {
    "do": "경상남도",
    "si": "진주시",
    "dong": "평거동",
    "zibun": "925",
    "db_name": "라온프라이빗 시티 럭스",
    "show_name": "라온프라이빗시티럭스",
    "lat": 35.169671,
    "lng": 128.06297
  }
]
